var fritidturismeGeoJSON =
{"name":"Fritid og turisme","type":"FeatureCollection"
,"features":[
{"type":"Feature","geometry":{"type":"Point","coordinates":[10.9895077613247,59.7051629248883]},"properties":{"URL":"<a href='http://www.des-norge.no/ski-historielag/lokalhistorie/32/32.html'>Gaupestein</a>","Navn":"Gaupestein","Bilder":"","Type":"Serverdigheter","Gruppe":"Fritid og turisme"}}
,{"type":"Feature","geometry":{"type":"Point","coordinates":[11.1670730303145,59.8232952089294]},"properties":{"URL":"<a href='http://www.handball.no/anlegg.asp?AnleggID=74'>Flateby idrettshall</a>","Navn":"Flateby idrettshall","Bilder":"<a href='http//195.1.20.76/links/0229/POI_bilder/flatebyh.jpg'>Flateby idrettshall Bilde </a>","Type":"Idrettsanlegg","Gruppe":"Fritid og turisme"}}
,{"type":"Feature","geometry":{"type":"Point","coordinates":[11.059619125865,59.7248850283943]},"properties":{"URL":"<a href='http://www.handball.no/anlegg.asp?AnleggID=73'>Mjær idrettshall</a>","Navn":"Mjær idrettshall","Bilder":"<a href='http//195.1.20.76/links/0229/POI_bilder/mjarhallen.jpg'>Mjær idrettshall Bilde </a>","Type":"Idrettsanlegg","Gruppe":"Fritid og turisme"}}
,{"type":"Feature","geometry":{"type":"Point","coordinates":[11.0613228575047,59.7262685467296]},"properties":{"URL":"<a href='http://www.facebook.com/pages/Mj%C3%A6r-stadion/176535789072555'>Mjær stadion</a>","Navn":"Mjær stadion","Bilder":"","Type":"Idrettsanlegg","Gruppe":"Fritid og turisme"}}
,{"type":"Feature","geometry":{"type":"Point","coordinates":[11.0582543719353,59.7324876438618]},"properties":{"URL":"<a href='http://www.fotball.no/Community/Anlegg/Hjem/?fiksId=6908'>Drivplassen</a>","Navn":"Drivplassen","Bilder":"","Type":"Idrettsanlegg","Gruppe":"Fritid og turisme"}}
,{"type":"Feature","geometry":{"type":"Point","coordinates":[11.1510697661237,59.764335088074]},"properties":{"URL":"<a href='http://www.fotball.no/Community/Anlegg/Hjem/?fiksId=2261'>Enebakk stadion</a>","Navn":"Enebakk stadion","Bilder":"","Type":"Idrettsanlegg","Gruppe":"Fritid og turisme"}}
,{"type":"Feature","geometry":{"type":"Point","coordinates":[11.1540292547615,59.8309829679134]},"properties":{"URL":"<a href='http://www.enebakk.kommune.no/modules/society.aspx?ObjectType=Object&Object.ID=1033&Category.ID=765'>Flateby kino</a>","Navn":"Flateby kino","Bilder":"<a href='http://195.1.20.76/links/0229/POI_ bilder/kino.JPG'>Flateby kino Bilde </a>","Type":"Kino","Gruppe":"Fritid og turisme"}}
,{"type":"Feature","geometry":{"type":"Point","coordinates":[11.1757115629207,59.828281759534]},"properties":{"URL":"<a href='http://www.flateby.no/batforening/'>Flateby båthavn</a>","Navn":"Flateby båthavn","Bilder":"<a href='http://195.1.20.76/links/0229/POI_bilder/bathavna-flateby.jpg'>Flateby båthavn Bilde </a>","Type":"Badeplasser","Gruppe":"Fritid og turisme"}}
,{"type":"Feature","geometry":{"type":"Point","coordinates":[11.1379431039973,59.713042514154]},"properties":{"URL":"<a href='http://www.enebakk.kommune.no/modules/service.aspx?ObjectType=Service&Service.ID=199&Category.ID=679'>Bermerud badeplass</a>","Navn":"Bermerud badeplass","Bilder":"<a href='http://195.1.20.76/links/0229/POI_bilder/bermerud2.JPG'>Bermerud badeplass Bilde </a>","Type":"Badeplasser","Gruppe":"Fritid og turisme"}}
,{"type":"Feature","geometry":{"type":"Point","coordinates":[11.0203576711878,59.7356809721464]},"properties":{"URL":"<a href='http://www.enebakk.kommune.no/modules/service.aspx?ObjectType=Service&Service.ID=199&Category.ID=679'>Viksstranda badeplass</a>","Navn":"Viksstranda badeplass","Bilder":"<a href='http://195.1.20.76/links/0229/POI_bilder/vik_bd_pl2.JPG'>Viksstranda badeplass Bilde </a>","Type":"Badeplasser","Gruppe":"Fritid og turisme"}}
,{"type":"Feature","geometry":{"type":"Point","coordinates":[11.0161363728264,59.8297995372362]},"properties":{"URL":"<a href='http://www.trolltur.no/tonekollen.html'>Tonekollen</a>","Navn":"Tonekollen","Bilder":"","Type":"Turmål","Gruppe":"Fritid og turisme"}}
,{"type":"Feature","geometry":{"type":"Point","coordinates":[11.1199786565916,59.7969351488091]},"properties":{"URL":"<a href='https://www.google.no/search?q=Vardåsen'>Vardåsen</a>","Navn":"Vardåsen","Bilder":"","Type":"Turmål","Gruppe":"Fritid og turisme"}}
,{"type":"Feature","geometry":{"type":"Point","coordinates":[11.0290913804652,59.8002013424711]},"properties":{"URL":"<a href='http://www.enebakk.kommune.no/modules/service.aspx?ObjectType=Service&Service.ID=160&Category.ID=679'>Raudsjøskole</a>","Navn":"Raudsjøskole","Bilder":"<a href='http://195.1.20.76/links/0229/POI_bilder/rausjoskole2.jpg'>Raudsjøskole Bilde </a>","Type":"Turmål","Gruppe":"Fritid og turisme"}}
,{"type":"Feature","geometry":{"type":"Point","coordinates":[11.122270556338,59.8329901133963]},"properties":{"URL":"<a href='http://enebakk.kommune.no/Modules/media.aspx?ObjectType=Image&Image.ID=1030&Category.ID=632'>Streifinn</a>","Navn":"Streifinn","Bilder":"<a href='http://195.1.20.76/links/0229/POI_bilder/streifinn1.jpg'>Streifinn Bilde </a>","Type":"Turmål","Gruppe":"Fritid og turisme"}}
,{"type":"Feature","geometry":{"type":"Point","coordinates":[11.1465771486001,59.7623155831753]},"properties":{"URL":"<a href='http://www.enebakk-kirken.no/'>Enebakk kirke</a>","Navn":"Enebakk kirke","Bilder":"<a href='http://195.1.20.76/links/0229/POI_bilder/enebakkkirke.jpg'>Enebakk kirke Bilde </a>","Type":"Serverdigheter","Gruppe":"Fritid og turisme"}}
,{"type":"Feature","geometry":{"type":"Point","coordinates":[11.151260221397,59.7612059881495]},"properties":{"URL":"<a href='http://www.enebakkhistorielag.no/bygdetunet.html'>Enebakk bygdetun</a>","Navn":"Enebakk bygdetun","Bilder":"<a href='http://195.1.20.76/links/0229/POI_bilder/bygdetunet4.JPG'>Enebakk bygdetun Bilde </a>","Type":"Serverdigheter","Gruppe":"Fritid og turisme"}}
,{"type":"Feature","geometry":{"type":"Point","coordinates":[11.1586980813346,59.7616768690111]},"properties":{"URL":"<a href='http://www.enebakk.kommune.no/modules/service.aspx?ObjectType=Service&Service.ID=169&Category.ID=744'>Engerholm husmannsplass</a>","Navn":"Engerholm husmannsplass","Bilder":"<a href='http://195.1.20.76/links/0229/POI_bilder/engerholm.JPG'>Engerholm husmannsplass Bilde </a>","Type":"Serverdigheter","Gruppe":"Fritid og turisme"}}
,{"type":"Feature","geometry":{"type":"Point","coordinates":[11.0558321225775,59.7191147386315]},"properties":{"URL":"<a href='http://idrett.speaker.no/organisation.asp?WCI=wiKlubbKassaNews&WCU=180112'>Mjær vannskisenter</a>","Navn":"Mjær vannskisenter","Bilder":"","Type":"Idrettsanlegg","Gruppe":"Fritid og turisme"}}
,{"type":"Feature","geometry":{"type":"Point","coordinates":[11.1419945075994,59.7502637331978]},"properties":{"URL":"<a href='http://www.follotaxi.no/'>Follo Taxi Enebakk</a>","Navn":"Follo Taxi Enebakk","Bilder":"","Type":"Offentlig transport","Gruppe":"Fritid og turisme"}}
,{"type":"Feature","geometry":{"type":"Point","coordinates":[11.1464793992495,59.7638442377793]},"properties":{"URL":"<a href='http://reiseplanlegger.ruter.no/no/Sanntid/For/%282290180%29Enebakk%20kirke'>Enebakk kirke bussterminal</a>","Navn":"Enebakk kirke bussterminal","Bilder":"","Type":"Offentlig transport","Gruppe":"Fritid og turisme"}}
,{"type":"Feature","geometry":{"type":"Point","coordinates":[11.0328573690589,59.7305657435029]},"properties":{"URL":"<a href='http://reiseplanlegger.ruter.no/no/Stoppested/(2290472)Skovheim%20(Enebakk)/Avganger/080620121450#st:1,zo:0,sp:0'>Skovheim stoppested</a>","Navn":"Skovheim stoppested","Bilder":"","Type":"Offentlig transport","Gruppe":"Fritid og turisme"}}
,{"type":"Feature","geometry":{"type":"Point","coordinates":[11.153690640632,59.7607889020562]},"properties":{"URL":"<a href='https://www.google.no/search?q=Ignarbakke'>Ignarbakke</a>","Navn":"Ignarbakke","Bilder":"","Type":"Forsamlingslokaler","Gruppe":"Fritid og turisme"}}
,{"type":"Feature","geometry":{"type":"Point","coordinates":[11.0558816560671,59.72223986866]},"properties":{"URL":"<a href='https://www.google.no/search?q=Tangen bru stoppested'>Tangen bru stoppested</a>","Navn":"Tangen bru stoppested","Bilder":"","Type":"Offentlig transport","Gruppe":"Fritid og turisme"}}
,{"type":"Feature","geometry":{"type":"Point","coordinates":[11.1286279593672,59.8361391159522]},"properties":{"URL":"<a href='https://www.google.no/search?q=Gjeddevannsveien stoppested'>Gjeddevannsveien stoppested</a>","Navn":"Gjeddevannsveien stoppested","Bilder":"","Type":"Offentlig transport","Gruppe":"Fritid og turisme"}}
,{"type":"Feature","geometry":{"type":"Point","coordinates":[11.1309539072767,59.7342654846763]},"properties":{"URL":"<a href='https://www.google.no/search?q=Tømmerbråten stoppested'>Tømmerbråten stoppested</a>","Navn":"Tømmerbråten stoppested","Bilder":"","Type":"Offentlig transport","Gruppe":"Fritid og turisme"}}
,{"type":"Feature","geometry":{"type":"Point","coordinates":[11.1486796639779,59.7698177029645]},"properties":{"URL":"<a href='https://www.google.no/search?q=Løkengarasjen stoppested'>Løkengarasjen stoppested</a>","Navn":"Løkengarasjen stoppested","Bilder":"","Type":"Offentlig transport","Gruppe":"Fritid og turisme"}}
,{"type":"Feature","geometry":{"type":"Point","coordinates":[11.122252730094,59.8329904008885]},"properties":{"URL":"<a href='http://enebakk.kommune.no/Modules/media.aspx?ObjectType=Image&Image.ID=1030&Category.ID=632'>Streifinn skistadion</a>","Navn":"Streifinn skistadion","Bilder":"<a href='http//195.1.20.76/links/0229/POI_bilder/flatebyskistadion.jpg'>Streifinn skistadion Bilde </a>","Type":"Idrettsanlegg","Gruppe":"Fritid og turisme"}}
,{"type":"Feature","geometry":{"type":"Point","coordinates":[11.1306157263102,59.7362202130687]},"properties":{"URL":"<a href='http://www.enebakk.kommune.no/Modules/calendarevent.aspx?ObjectType=CalendarEvent&CalendarEvent.ID=358&Calendar.ID=45&Category.ID=567'>Larsbråten</a>","Navn":"Larsbråten","Bilder":"<a href='http://195.1.20.76/links/0229/POI_bilder/larsbraatan.jpg'>Larsbråten Bilde </a>","Type":"Serveringssteder","Gruppe":"Fritid og turisme"}}
,{"type":"Feature","geometry":{"type":"Point","coordinates":[11.0246918093117,59.7132031508021]},"properties":{"URL":"<a href='https://www.google.no/search?q=Bråtenstua'>Bråtenstua</a>","Navn":"Bråtenstua","Bilder":"<a href='http://195.1.20.76/links/0229/POI_bilder/bratan_ytre.jpg'>Bråtenstua Bilde </a>","Type":"Serveringssteder","Gruppe":"Fritid og turisme"}}
,{"type":"Feature","geometry":{"type":"Point","coordinates":[10.9992861708131,59.8186671846831]},"properties":{"URL":"<a href='http://www.vangenskistue.no/?go=turpakker&side=villmarksopplegg'>Vangen</a>","Navn":"Vangen","Bilder":"<a href='http://195.1.20.76/links/0229/POI_bilder/vangen.jpg'>Vangen Bilde </a>","Type":"Serveringssteder","Gruppe":"Fritid og turisme"}}
,{"type":"Feature","geometry":{"type":"Point","coordinates":[11.1208271776074,59.7608922552821]},"properties":{"URL":"<a href='https://www.google.no/search?q=Holtopp'>Holtopp</a>","Navn":"Holtopp","Bilder":"","Type":"Serveringssteder","Gruppe":"Fritid og turisme"}}
,{"type":"Feature","geometry":{"type":"Point","coordinates":[11.154101133612,59.8309907738891]},"properties":{"URL":"<a href='https://www.google.no/search?q=Flateby grendehus'>Flateby grendehus</a>","Navn":"Flateby grendehus","Bilder":"","Type":"Forsamlingslokaler","Gruppe":"Fritid og turisme"}}
,{"type":"Feature","geometry":{"type":"Point","coordinates":[11.114527678206,59.7907979973203]},"properties":{"URL":"<a href='https://www.google.no/search?q=Kølabånn'>Kølabånn</a>","Navn":"Kølabånn","Bilder":"","Type":"Turmål","Gruppe":"Fritid og turisme"}}
,{"type":"Feature","geometry":{"type":"Point","coordinates":[11.0629703413686,59.7267367128664]},"properties":{"URL":"<a href='https://www.google.no/search?q=Bråten dammen'>Bråten dammen</a>","Navn":"Bråten dammen","Bilder":"","Type":"Turmål","Gruppe":"Fritid og turisme"}}
,{"type":"Feature","geometry":{"type":"Point","coordinates":[10.9901277646863,59.7069230447317]},"properties":{"URL":"<a href='https://www.google.no/search?q=Gaupesteinsåsen'>Gaupesteinsåsen</a>","Navn":"Gaupesteinsåsen","Bilder":"","Type":"Turmål","Gruppe":"Fritid og turisme"}}
,{"type":"Feature","geometry":{"type":"Point","coordinates":[11.0260731790642,59.702232268492]},"properties":{"URL":"<a href='https://www.google.no/search?q=Mjærskaugkollen'>Mjærskaugkollen</a>","Navn":"Mjærskaugkollen","Bilder":"","Type":"Turmål","Gruppe":"Fritid og turisme"}}
,{"type":"Feature","geometry":{"type":"Point","coordinates":[11.0084220683201,59.7997641114733]},"properties":{"URL":"<a href='https://www.google.no/search?q=Kjerringhøgde branntårn'>Kjerringhøgde branntårn</a>","Navn":"Kjerringhøgde branntårn","Bilder":"","Type":"Turmål","Gruppe":"Fritid og turisme"}}
,{"type":"Feature","geometry":{"type":"Point","coordinates":[11.0147683324788,59.7536686444148]},"properties":{"URL":"<a href='https://www.google.no/search?q=Bjerkland skytebane'>Bjerkland skytebane</a>","Navn":"Bjerkland skytebane","Bilder":"","Type":"Idrettsanlegg","Gruppe":"Fritid og turisme"}}
,{"type":"Feature","geometry":{"type":"Point","coordinates":[11.1443148040261,59.7106390091575]},"properties":{"URL":"<a href='https://www.google.no/search?q=Brevig skytebane'>Brevig skytebane</a>","Navn":"Brevig skytebane","Bilder":"","Type":"Idrettsanlegg","Gruppe":"Fritid og turisme"}}
,{"type":"Feature","geometry":{"type":"Point","coordinates":[11.1754623882792,59.7166300883777]},"properties":{"URL":"<a href='https://www.google.no/search?q=Granly'>Granly</a>","Navn":"Granly","Bilder":"","Type":"Forsamlingslokaler","Gruppe":"Fritid og turisme"}}
,{"type":"Feature","geometry":{"type":"Point","coordinates":[11.1323409810121,59.7334165642289]},"properties":{"URL":"<a href='https://www.google.no/search?q=Bøndenshus'>Bøndenshus</a>","Navn":"Bøndenshus","Bilder":"","Type":"Forsamlingslokaler","Gruppe":"Fritid og turisme"}}
,{"type":"Feature","geometry":{"type":"Point","coordinates":[11.149475388577,59.76197177801]},"properties":{"URL":"<a href='http://www.enebakk.kommune.no/'>Kunstsamlingene i Det gamle herradshus</a>","Navn":"Kunstsamlingene i Det gamle herradshus","Bilder":"","Type":"Serverdigheter","Gruppe":"Fritid og turisme"}}
,{"type":"Feature","geometry":{"type":"Point","coordinates":[11.1306157263102,59.7362202130687]},"properties":{"URL":"<a href='https://www.google.no/search?q=Larsbråten'>Larsbråten</a>","Navn":"Larsbråten","Bilder":"<a href='http://195.1.20.76/links/0229/POI_bilder/larsbraatan.jpg'>Larsbråten Bilde </a>","Type":"Turmål","Gruppe":"Fritid og turisme"}}
,{"type":"Feature","geometry":{"type":"Point","coordinates":[11.1757115629207,59.828281759534]},"properties":{"URL":"<a href='http://flateby.no/batforening/index.htm'>Flateby båthavn</a>","Navn":"Flateby båthavn","Bilder":"<a href='http://195.1.20.76/links/0229/POI_bilder/bathavna-flateby2.jpg'>Flateby båthavn Bilde </a>","Type":"Båthavner","Gruppe":"Fritid og turisme"}}
,{"type":"Feature","geometry":{"type":"Point","coordinates":[11.1494696205748,59.761882045327]},"properties":{"URL":"<a href='http://www.enebakk.kommune.no/'>Kirkebygda ungdomsklubb</a>","Navn":"Kirkebygda ungdomsklubb","Bilder":"","Type":"Fritidsklubber","Gruppe":"Fritid og turisme"}}
,{"type":"Feature","geometry":{"type":"Point","coordinates":[11.1540292547615,59.8309829679134]},"properties":{"URL":"<a href='http://www.enebakk.kommune.no/'>Flateby ungdomsklubb</a>","Navn":"Flateby ungdomsklubb","Bilder":"","Type":"Fritidsklubber","Gruppe":"Fritid og turisme"}}
,{"type":"Feature","geometry":{"type":"Point","coordinates":[11.0612265600705,59.7252819837327]},"properties":{"URL":"<a href='http://www.enebakk.kommune.no/'>Ytre Enebakk ungdomsklubb</a>","Navn":"Ytre Enebakk ungdomsklubb","Bilder":"","Type":"Fritidsklubber","Gruppe":"Fritid og turisme"}}
,{"type":"Feature","geometry":{"type":"Point","coordinates":[11.0410118627111,59.7219239135616]},"properties":{"URL":"<a href='http://www.ostmarkagolf.no/'>Østmarka golfklubb</a>","Navn":"Østmarka golfklubb","Bilder":"<a href='http//195.1.20.76/links/0229/POI_bilder/Østmarka-golf.jpg'>Østmarka golfklubb Bilde </a>","Type":"Idrettsanlegg","Gruppe":"Fritid og turisme"}}
,{"type":"Feature","geometry":{"type":"Point","coordinates":[11.1381339802384,59.7628305062607]},"properties":{"URL":"<a href='http://home.no/epk/'>Enebakk Pistolklubb</a>","Navn":"Enebakk Pistolklubb","Bilder":"","Type":"Idrettsanlegg","Gruppe":"Fritid og turisme"}}
]}
