var skolerGeoJSON = 
{"name":"Skoler","type":"FeatureCollection"
,"features":[
{"type":"Feature","geometry":{"type":"Point","coordinates":[11.1485501941858,59.7650320436063]},"properties":{"URL":"<a href='http://www.enebakk.ungdomsskole.no/'>Enebakk ungdomsskole</a>","Navn":"Enebakk ungdomsskole","Bilder":"","Type":"Ungdomsskoler","Gruppe":"Skoler"}}
,{"type":"Feature","geometry":{"type":"Point","coordinates":[11.0610378187247,59.725105296317]},"properties":{"URL":"<a href='http://mjaer.ungdomsskole.no/'>Mjær ungdomsskole</a>","Navn":"Mjær ungdomsskole","Bilder":"http://195.1.20.76/links/0229/POI_bilder/mjaerungdomsskole1.jpg","Type":"Ungdomsskoler","Gruppe":"Skoler"}}
,{"type":"Feature","geometry":{"type":"Point","coordinates":[11.0566816226658,59.7213650222212]},"properties":{"URL":"<a href='http://www.ytreenebakk.skole.no/'>Ytre Enebakk skole</a>","Navn":"Ytre Enebakk skole","Bilder":"http://195.1.20.76/links/0229/POI_bilder/ytreenebakkskole1.jpg","Type":"Barneskoler","Gruppe":"Skoler"}}
,{"type":"Feature","geometry":{"type":"Point","coordinates":[11.1490458716484,59.7663713432105]},"properties":{"URL":"<a href='http://www.kirkebygden.skole.no/'>Kirkebygden skole</a>","Navn":"Kirkebygden skole","Bilder":"http://195.1.20.76/links/0229/POI_bilder/kirkeb_skole.JPG","Type":"Barneskoler","Gruppe":"Skoler"}}
,{"type":"Feature","geometry":{"type":"Point","coordinates":[11.1646621335828,59.8227061106437]},"properties":{"URL":"<a href='http://www.stranden.skole.no/'>Stranden skole</a>","Navn":"Stranden skole","Bilder":"","Type":"Barneskoler","Gruppe":"Skoler"}}
,{"type":"Feature","geometry":{"type":"Point","coordinates":[11.1499716267872,59.7616582478364]},"properties":{"URL":"<a href='http://www.enebakk.kommune.no/modules/theme.aspx?ObjectType=Article&ElementID=684&Category.ID=839'>Enebakk kulturskole</a>","Navn":"Enebakk kulturskole","Bilder":"","Type":"Andre skoler","Gruppe":"Skoler"}}
,{"type":"Feature","geometry":{"type":"Point","coordinates":[11.0145495008966,59.7367312979629]},"properties":{"URL":"<a href='http://www.vikgaard.no/index.php?page=home'>Vik musikkskole</a>","Navn":"Vik musikkskole","Bilder":"","Type":"Andre skoler","Gruppe":"Skoler"}}
,{"type":"Feature","geometry":{"type":"Point","coordinates":[11.1342399470538,59.8326438275574]},"properties":{"URL":"<a href='http://www.hauglia.skole.no/'>Hauglia skole</a>","Navn":"Hauglia skole","Bilder":"","Type":"Barneskoler","Gruppe":"Skoler"}}
]}
