{"name":"Fritid og turisme","type":"FeatureCollection"
,"features":[
{"type":"Feature","geometry":{"type":"Point","coordinates":[10.9895077613247,59.7051629248883]},"properties":{"URL":"http://www.des-norge.no/ski-historielag/lokalhistorie/32/32.html","Navn":"Gaupestein","Bilder":"","Type":"Serverdigheter","Gruppe":"Fritid og turisme"}}
,{"type":"Feature","geometry":{"type":"Point","coordinates":[11.1670730303145,59.8232952089294]},"properties":{"URL":"http://www.handball.no/anlegg.asp?AnleggID=74","Navn":"Flateby idrettshall","Bilder":"http//195.1.20.76/links/0229/POI_bilder/flatebyh.jpg","Type":"Idrettsanlegg","Gruppe":"Fritid og turisme"}}
,{"type":"Feature","geometry":{"type":"Point","coordinates":[11.059619125865,59.7248850283943]},"properties":{"URL":"http://www.handball.no/anlegg.asp?AnleggID=73","Navn":"Mjær idrettshall","Bilder":"http//195.1.20.76/links/0229/POI_bilder/mjarhallen.jpg","Type":"Idrettsanlegg","Gruppe":"Fritid og turisme"}}
,{"type":"Feature","geometry":{"type":"Point","coordinates":[11.0613228575047,59.7262685467296]},"properties":{"URL":"http://www.facebook.com/pages/Mj%C3%A6r-stadion/176535789072555","Navn":"Mjær stadion","Bilder":"","Type":"Idrettsanlegg","Gruppe":"Fritid og turisme"}}
,{"type":"Feature","geometry":{"type":"Point","coordinates":[11.0582543719353,59.7324876438618]},"properties":{"URL":"http://www.fotball.no/Community/Anlegg/Hjem/?fiksId=6908","Navn":"Drivplassen","Bilder":"","Type":"Idrettsanlegg","Gruppe":"Fritid og turisme"}}
,{"type":"Feature","geometry":{"type":"Point","coordinates":[11.1510697661237,59.764335088074]},"properties":{"URL":"http://www.fotball.no/Community/Anlegg/Hjem/?fiksId=2261","Navn":"Enebakk stadion","Bilder":"","Type":"Idrettsanlegg","Gruppe":"Fritid og turisme"}}
,{"type":"Feature","geometry":{"type":"Point","coordinates":[11.1540292547615,59.8309829679134]},"properties":{"URL":"http://www.enebakk.kommune.no/modules/society.aspx?ObjectType=Object&Object.ID=1033&Category.ID=765","Navn":"Flateby kino","Bilder":"http://195.1.20.76/links/0229/POI_ bilder/kino.JPG","Type":"Kino","Gruppe":"Fritid og turisme"}}
,{"type":"Feature","geometry":{"type":"Point","coordinates":[11.1757115629207,59.828281759534]},"properties":{"URL":"http://www.flateby.no/batforening/","Navn":"Flateby båthavn","Bilder":"http://195.1.20.76/links/0229/POI_bilder/bathavna-flateby.jpg","Type":"Badeplasser","Gruppe":"Fritid og turisme"}}
,{"type":"Feature","geometry":{"type":"Point","coordinates":[11.1379431039973,59.713042514154]},"properties":{"URL":"http://www.enebakk.kommune.no/modules/service.aspx?ObjectType=Service&Service.ID=199&Category.ID=679","Navn":"Bermerud badeplass","Bilder":"http://195.1.20.76/links/0229/POI_bilder/bermerud2.JPG","Type":"Badeplasser","Gruppe":"Fritid og turisme"}}
,{"type":"Feature","geometry":{"type":"Point","coordinates":[11.0203576711878,59.7356809721464]},"properties":{"URL":"http://www.enebakk.kommune.no/modules/service.aspx?ObjectType=Service&Service.ID=199&Category.ID=679","Navn":"Viksstranda badeplass","Bilder":"http://195.1.20.76/links/0229/POI_bilder/vik_bd_pl2.JPG","Type":"Badeplasser","Gruppe":"Fritid og turisme"}}
,{"type":"Feature","geometry":{"type":"Point","coordinates":[11.0161363728264,59.8297995372362]},"properties":{"URL":"http://www.trolltur.no/tonekollen.html","Navn":"Tonekollen","Bilder":"","Type":"Turmål","Gruppe":"Fritid og turisme"}}
,{"type":"Feature","geometry":{"type":"Point","coordinates":[11.1199786565916,59.7969351488091]},"properties":{"URL":"","Navn":"Vardåsen","Bilder":"","Type":"Turmål","Gruppe":"Fritid og turisme"}}
,{"type":"Feature","geometry":{"type":"Point","coordinates":[11.0290913804652,59.8002013424711]},"properties":{"URL":"http://www.enebakk.kommune.no/modules/service.aspx?ObjectType=Service&Service.ID=160&Category.ID=679","Navn":"Raudsjøskole","Bilder":"http://195.1.20.76/links/0229/POI_bilder/rausjoskole2.jpg","Type":"Turmål","Gruppe":"Fritid og turisme"}}
,{"type":"Feature","geometry":{"type":"Point","coordinates":[11.122270556338,59.8329901133963]},"properties":{"URL":"http://enebakk.kommune.no/Modules/media.aspx?ObjectType=Image&Image.ID=1030&Category.ID=632","Navn":"Streifinn","Bilder":"http://195.1.20.76/links/0229/POI_bilder/streifinn1.jpg","Type":"Turmål","Gruppe":"Fritid og turisme"}}
,{"type":"Feature","geometry":{"type":"Point","coordinates":[11.1465771486001,59.7623155831753]},"properties":{"URL":"http://www.enebakk-kirken.no/","Navn":"Enebakk kirke","Bilder":"http://195.1.20.76/links/0229/POI_bilder/enebakkkirke.jpg","Type":"Serverdigheter","Gruppe":"Fritid og turisme"}}
,{"type":"Feature","geometry":{"type":"Point","coordinates":[11.151260221397,59.7612059881495]},"properties":{"URL":"http://www.enebakkhistorielag.no/bygdetunet.html","Navn":"Enebakk bygdetun","Bilder":"http://195.1.20.76/links/0229/POI_bilder/bygdetunet4.JPG","Type":"Serverdigheter","Gruppe":"Fritid og turisme"}}
,{"type":"Feature","geometry":{"type":"Point","coordinates":[11.1586980813346,59.7616768690111]},"properties":{"URL":"http://www.enebakk.kommune.no/modules/service.aspx?ObjectType=Service&Service.ID=169&Category.ID=744","Navn":"Engerholm husmannsplass","Bilder":"http://195.1.20.76/links/0229/POI_bilder/engerholm.JPG","Type":"Serverdigheter","Gruppe":"Fritid og turisme"}}
,{"type":"Feature","geometry":{"type":"Point","coordinates":[11.0558321225775,59.7191147386315]},"properties":{"URL":"http://idrett.speaker.no/organisation.asp?WCI=wiKlubbKassaNews&WCU=180112","Navn":"Mjær vannskisenter","Bilder":"","Type":"Idrettsanlegg","Gruppe":"Fritid og turisme"}}
,{"type":"Feature","geometry":{"type":"Point","coordinates":[11.1419945075994,59.7502637331978]},"properties":{"URL":"http://www.follotaxi.no/","Navn":"Follo Taxi Enebakk","Bilder":"","Type":"Offentlig transport","Gruppe":"Fritid og turisme"}}
,{"type":"Feature","geometry":{"type":"Point","coordinates":[11.1464793992495,59.7638442377793]},"properties":{"URL":"http://reiseplanlegger.ruter.no/no/Sanntid/For/%282290180%29Enebakk%20kirke","Navn":"Enebakk kirke bussterminal","Bilder":"","Type":"Offentlig transport","Gruppe":"Fritid og turisme"}}
,{"type":"Feature","geometry":{"type":"Point","coordinates":[11.0328573690589,59.7305657435029]},"properties":{"URL":"http://reiseplanlegger.ruter.no/no/Stoppested/(2290472)Skovheim%20(Enebakk)/Avganger/080620121450#st:1,zo:0,sp:0","Navn":"Skovheim stoppested","Bilder":"","Type":"Offentlig transport","Gruppe":"Fritid og turisme"}}
,{"type":"Feature","geometry":{"type":"Point","coordinates":[11.153690640632,59.7607889020562]},"properties":{"URL":"","Navn":"Ignarbakke","Bilder":"","Type":"Forsamlingslokaler","Gruppe":"Fritid og turisme"}}
,{"type":"Feature","geometry":{"type":"Point","coordinates":[11.0558816560671,59.72223986866]},"properties":{"URL":"","Navn":"Tangen bru stoppested","Bilder":"","Type":"Offentlig transport","Gruppe":"Fritid og turisme"}}
,{"type":"Feature","geometry":{"type":"Point","coordinates":[11.1286279593672,59.8361391159522]},"properties":{"URL":"","Navn":"Gjeddevannsveien stoppested","Bilder":"","Type":"Offentlig transport","Gruppe":"Fritid og turisme"}}
,{"type":"Feature","geometry":{"type":"Point","coordinates":[11.1309539072767,59.7342654846763]},"properties":{"URL":"","Navn":"Tømmerbråten stoppested","Bilder":"","Type":"Offentlig transport","Gruppe":"Fritid og turisme"}}
,{"type":"Feature","geometry":{"type":"Point","coordinates":[11.1486796639779,59.7698177029645]},"properties":{"URL":"","Navn":"Løkengarasjen stoppested","Bilder":"","Type":"Offentlig transport","Gruppe":"Fritid og turisme"}}
,{"type":"Feature","geometry":{"type":"Point","coordinates":[11.122252730094,59.8329904008885]},"properties":{"URL":"http://enebakk.kommune.no/Modules/media.aspx?ObjectType=Image&Image.ID=1030&Category.ID=632","Navn":"Streifinn skistadion","Bilder":"http//195.1.20.76/links/0229/POI_bilder/flatebyskistadion.jpg","Type":"Idrettsanlegg","Gruppe":"Fritid og turisme"}}
,{"type":"Feature","geometry":{"type":"Point","coordinates":[11.1306157263102,59.7362202130687]},"properties":{"URL":"http://www.enebakk.kommune.no/Modules/calendarevent.aspx?ObjectType=CalendarEvent&CalendarEvent.ID=358&Calendar.ID=45&Category.ID=567","Navn":"Larsbråten","Bilder":"http://195.1.20.76/links/0229/POI_bilder/larsbraatan.jpg","Type":"Serveringssteder","Gruppe":"Fritid og turisme"}}
,{"type":"Feature","geometry":{"type":"Point","coordinates":[11.0246918093117,59.7132031508021]},"properties":{"URL":"","Navn":"Bråtenstua","Bilder":"http://195.1.20.76/links/0229/POI_bilder/bratan_ytre.jpg","Type":"Serveringssteder","Gruppe":"Fritid og turisme"}}
,{"type":"Feature","geometry":{"type":"Point","coordinates":[10.9992861708131,59.8186671846831]},"properties":{"URL":"http://www.vangenskistue.no/?go=turpakker&side=villmarksopplegg","Navn":"Vangen","Bilder":"http://195.1.20.76/links/0229/POI_bilder/vangen.jpg","Type":"Serveringssteder","Gruppe":"Fritid og turisme"}}
,{"type":"Feature","geometry":{"type":"Point","coordinates":[11.1208271776074,59.7608922552821]},"properties":{"URL":"","Navn":"Holtopp","Bilder":"","Type":"Serveringssteder","Gruppe":"Fritid og turisme"}}
,{"type":"Feature","geometry":{"type":"Point","coordinates":[11.154101133612,59.8309907738891]},"properties":{"URL":"","Navn":"Flateby grendehus","Bilder":"","Type":"Forsamlingslokaler","Gruppe":"Fritid og turisme"}}
,{"type":"Feature","geometry":{"type":"Point","coordinates":[11.114527678206,59.7907979973203]},"properties":{"URL":"","Navn":"Kølabånn","Bilder":"","Type":"Turmål","Gruppe":"Fritid og turisme"}}
,{"type":"Feature","geometry":{"type":"Point","coordinates":[11.0629703413686,59.7267367128664]},"properties":{"URL":"","Navn":"Bråten dammen","Bilder":"","Type":"Turmål","Gruppe":"Fritid og turisme"}}
,{"type":"Feature","geometry":{"type":"Point","coordinates":[10.9901277646863,59.7069230447317]},"properties":{"URL":"","Navn":"Gaupesteinsåsen","Bilder":"","Type":"Turmål","Gruppe":"Fritid og turisme"}}
,{"type":"Feature","geometry":{"type":"Point","coordinates":[11.0260731790642,59.702232268492]},"properties":{"URL":"","Navn":"Mjærskaugkollen","Bilder":"","Type":"Turmål","Gruppe":"Fritid og turisme"}}
,{"type":"Feature","geometry":{"type":"Point","coordinates":[11.0084220683201,59.7997641114733]},"properties":{"URL":"","Navn":"Kjerringhøgde branntårn","Bilder":"","Type":"Turmål","Gruppe":"Fritid og turisme"}}
,{"type":"Feature","geometry":{"type":"Point","coordinates":[11.0147683324788,59.7536686444148]},"properties":{"URL":"","Navn":"Bjerkland skytebane","Bilder":"","Type":"Idrettsanlegg","Gruppe":"Fritid og turisme"}}
,{"type":"Feature","geometry":{"type":"Point","coordinates":[11.1443148040261,59.7106390091575]},"properties":{"URL":"","Navn":"Brevig skytebane","Bilder":"","Type":"Idrettsanlegg","Gruppe":"Fritid og turisme"}}
,{"type":"Feature","geometry":{"type":"Point","coordinates":[11.1754623882792,59.7166300883777]},"properties":{"URL":"","Navn":"Granly","Bilder":"","Type":"Forsamlingslokaler","Gruppe":"Fritid og turisme"}}
,{"type":"Feature","geometry":{"type":"Point","coordinates":[11.1323409810121,59.7334165642289]},"properties":{"URL":"","Navn":"Bøndenshus","Bilder":"","Type":"Forsamlingslokaler","Gruppe":"Fritid og turisme"}}
,{"type":"Feature","geometry":{"type":"Point","coordinates":[11.149475388577,59.76197177801]},"properties":{"URL":"http://www.enebakk.kommune.no/","Navn":"Kunstsamlingene i Det gamle herradshus","Bilder":"","Type":"Serverdigheter","Gruppe":"Fritid og turisme"}}
,{"type":"Feature","geometry":{"type":"Point","coordinates":[11.1306157263102,59.7362202130687]},"properties":{"URL":"","Navn":"Larsbråten","Bilder":"http://195.1.20.76/links/0229/POI_bilder/larsbraatan.jpg","Type":"Turmål","Gruppe":"Fritid og turisme"}}
,{"type":"Feature","geometry":{"type":"Point","coordinates":[11.1757115629207,59.828281759534]},"properties":{"URL":"http://flateby.no/batforening/index.htm","Navn":"Flateby båthavn","Bilder":"http://195.1.20.76/links/0229/POI_bilder/bathavna-flateby2.jpg","Type":"Båthavner","Gruppe":"Fritid og turisme"}}
,{"type":"Feature","geometry":{"type":"Point","coordinates":[11.1494696205748,59.761882045327]},"properties":{"URL":"http://www.enebakk.kommune.no/","Navn":"Kirkebygda ungdomsklubb","Bilder":"","Type":"Fritidsklubber","Gruppe":"Fritid og turisme"}}
,{"type":"Feature","geometry":{"type":"Point","coordinates":[11.1540292547615,59.8309829679134]},"properties":{"URL":"http://www.enebakk.kommune.no/","Navn":"Flateby ungdomsklubb","Bilder":"","Type":"Fritidsklubber","Gruppe":"Fritid og turisme"}}
,{"type":"Feature","geometry":{"type":"Point","coordinates":[11.0612265600705,59.7252819837327]},"properties":{"URL":"http://www.enebakk.kommune.no/","Navn":"Ytre Enebakk ungdomsklubb","Bilder":"","Type":"Fritidsklubber","Gruppe":"Fritid og turisme"}}
,{"type":"Feature","geometry":{"type":"Point","coordinates":[11.0410118627111,59.7219239135616]},"properties":{"URL":"http://www.ostmarkagolf.no/","Navn":"Østmarka golfklubb","Bilder":"http//195.1.20.76/links/0229/POI_bilder/Østmarka-golf.jpg","Type":"Idrettsanlegg","Gruppe":"Fritid og turisme"}}
,{"type":"Feature","geometry":{"type":"Point","coordinates":[11.1381339802384,59.7628305062607]},"properties":{"URL":"http://home.no/epk/","Navn":"Enebakk Pistolklubb","Bilder":"","Type":"Idrettsanlegg","Gruppe":"Fritid og turisme"}}
]}
