{"name":"Offentlige bygg og funksjoner","type":"FeatureCollection"
,"features":[
{"type":"Feature","geometry":{"type":"Point","coordinates":[11.1377713227471,59.7627286145138]},"properties":{"URL":"<a href='http://www.follobrannvesen.no/'>Enebakk brannstasjon</a>","Navn":"Enebakk brannstasjon","Bilder":"http://195.1.20.76/links/0229/POI_bilder/enebakk_br_st.jpg","Type":"Brannstasjon","Gruppe":"Offentlige bygg og funksjoner"}}
,{"type":"Feature","geometry":{"type":"Point","coordinates":[11.1444882717232,59.764451638012]},"properties":{"URL":"<a href='http://www.enebakk.kommune.no/modules/servicecategory.aspx?category.id=601&objecttype=category'>Enebakk bibliotek</a>","Navn":"Enebakk bibliotek","Bilder":"http://195.1.20.76/links/0229/POI_bilder/enebakkfolkebibliotek.jpg","Type":"Bibliotek","Gruppe":"Offentlige bygg og funksjoner"}}
,{"type":"Feature","geometry":{"type":"Point","coordinates":[11.1414277829128,59.7503089028602]},"properties":{"URL":"<a href='http://www.veiatlas.no/listing.php?id=2600'>Gjølstad gjenvinningstasjon</a>","Navn":"Gjølstad gjenvinningstasjon","Bilder":"","Type":"Avfallsplasser","Gruppe":"Offentlige bygg og funksjoner"}}
,{"type":"Feature","geometry":{"type":"Point","coordinates":[11.1458471899644,59.7620400591589]},"properties":{"URL":"<a href='http://www.enebakk-kirken.no/'>Enebakk kirke</a>","Navn":"Enebakk kirke","Bilder":"http://195.1.20.76/links/0229/POI_bilder/enebakkkirke.jpg","Type":"Kirker","Gruppe":"Offentlige bygg og funksjoner"}}
,{"type":"Feature","geometry":{"type":"Point","coordinates":[11.0500971622457,59.7212973251626]},"properties":{"URL":"<a href='http://www.enebakk.kommune.no/modules/service.aspx?ObjectType=Service&Service.ID=424&Category.ID=744'>Mari kirke</a>","Navn":"Mari kirke","Bilder":"http://195.1.20.76/links/0229/POI_bilder/Mari_vinter_kirkeg.JPG","Type":"Kirker","Gruppe":"Offentlige bygg og funksjoner"}}
,{"type":"Feature","geometry":{"type":"Point","coordinates":[11.144035911595,59.7635068545821]},"properties":{"URL":"<a href='https://www.politi.no/follo/aktuelt/nyhetsarkiv/2006_01/Nyhet_6491.xml'>Enebakk lensmannskontor</a>","Navn":"Enebakk lensmannskontor","Bilder":"","Type":"Politi","Gruppe":"Offentlige bygg og funksjoner"}}
,{"type":"Feature","geometry":{"type":"Point","coordinates":[11.1448589719865,59.7644006746662]},"properties":{"URL":"<a href='http://enebakk.kommune.no/Modules/media.aspx?ObjectType=Image&Image.ID=675&Category.ID=632'>Enebakk Herredshus</a>","Navn":"Enebakk Herredshus","Bilder":"http://195.1.20.76/links/0229/POI_bilder/raadhuset.JPG","Type":"Rådhuset","Gruppe":"Offentlige bygg og funksjoner"}}
,{"type":"Feature","geometry":{"type":"Point","coordinates":[11.14454546041,59.7633997304021]},"properties":{"URL":"<a href='http://www.bdb.no/bedriftsinfo/Nav_Enebakk_2'>Enebakk trygdekontor</a>","Navn":"Enebakk trygdekontor","Bilder":"","Type":"Trygdekontoret","Gruppe":"Offentlige bygg og funksjoner"}}
,{"type":"Feature","geometry":{"type":"Point","coordinates":[11.1448578207475,59.7643827280821]},"properties":{"URL":"<a href='http://www.enebakk.kommune.no/modules/article.aspx?ObjectType=Article&Article.ID=721&Category.ID=913'>Follo ligningskontor avd. Enebakk</a>","Navn":"Follo ligningskontor avd. Enebakk","Bilder":"","Type":"Ligningskontor","Gruppe":"Offentlige bygg og funksjoner"}}
,{"type":"Feature","geometry":{"type":"Point","coordinates":[11.0505604063131,59.7210206174305]},"properties":{"URL":"<a href='http:/www.enebakk.kommune.no/'>Mari kapell</a>","Navn":"Mari kapell","Bilder":"","Type":"Kirker","Gruppe":"Offentlige bygg og funksjoner"}}
]}
